City_ID,City,Lat,Lng,Max Temp,Humidity,Cloudiness,Wind Speed,Country,Date
0,puerto natales,-51.7236,-72.4875,32.56,94,100,4.97,CL,1687730834
1,margaret river,-33.95,115.0667,45.84,84,71,8.7,AU,1687731017
2,ushuaia,-54.8,-68.3,37.06,81,100,6.91,AR,1687731017
3,codrington,-38.2667,141.9667,53.31,80,99,19.17,AU,1687731018
4,avarua,-21.2078,-159.775,80.65,89,40,6.91,CK,1687731018
5,edinburgh of the seven seas,-37.0676,-12.3116,59.92,84,100,33.24,SH,1687731019
6,adamstown,-25.066,-130.1015,73.02,80,77,16.35,PN,1687731019
7,anadyr,64.75,177.4833,61.3,59,0,6.71,RU,1687731019
8,carnarvon,-24.8667,113.6333,57.7,73,9,12.71,AU,1687731020
9,kamaishi,39.2667,141.8833,68.02,86,12,2.28,JP,1687731020
10,baoding,38.8511,115.4903,76.91,63,100,3.4,CN,1687731021
11,daru,-9.0763,143.2092,78.33,84,100,17.96,PG,1687731021
12,port-aux-francais,-49.35,70.2167,34.81,99,100,28.97,TF,1687731022
13,bilibino,68.0546,166.4372,63.7,53,85,3.38,RU,1687731022
14,west island,-12.1568,96.8225,76.98,88,40,19.57,CC,1687731022
15,iqaluit,63.7506,-68.5145,44.33,76,100,10.36,CA,1687730735
16,port alfred,-33.5906,26.891,59.18,95,100,5.01,ZA,1687731023
17,tazovsky,67.4667,78.7,43.5,75,6,2.06,RU,1687731024
18,ilulissat,69.2167,-51.1,41.02,81,74,4.61,GL,1687730859
19,naze,28.3667,129.4833,76.28,89,84,7.63,JP,1687731025
20,dunedin,-45.8742,170.5036,49.8,87,100,5.99,NZ,1687731025
21,aasiaat,68.7098,-52.8699,37.0,82,28,7.25,GL,1687731025
22,benjamin constant,-4.3831,-70.0311,78.85,83,75,2.3,BR,1687731026
23,remire-montjoly,4.9167,-52.2667,77.04,88,20,2.3,GF,1687731026
24,vilyuchinsk,52.9306,158.4028,64.26,76,38,3.62,RU,1687731027
25,grytviken,-54.2811,-36.5092,28.0,86,57,9.98,GS,1687731027
26,alaghsas,17.0187,8.0168,86.67,45,40,19.24,NE,1687731028
27,albany,42.6001,-73.9662,86.41,64,35,1.01,US,1687730879
28,sambava,-14.2667,50.1667,68.95,82,3,12.8,MG,1687731029
29,puerto ayora,-0.7393,-90.3518,78.55,89,89,8.01,EC,1687730906
30,port saint john's,-31.6229,29.5448,65.17,86,89,7.61,ZA,1687731029
31,vicosa,-20.7539,-42.8819,61.97,78,100,2.33,BR,1687731030
32,gadzhiyevo,69.2551,33.3362,48.76,93,88,4.61,RU,1687731030
33,saipan,15.1355,145.701,84.9,100,40,13.8,MP,1687730802
34,bealanana,-14.55,48.7333,55.31,98,87,3.74,MG,1687731031
35,jamestown,42.097,-79.2353,83.01,63,75,8.05,US,1687730891
36,keflavik,64.0049,-22.5624,46.83,93,100,5.75,IS,1687731032
37,adrar,20.5022,-10.0711,91.47,12,0,10.89,MR,1687731032
38,lihue,21.9789,-159.3672,83.79,60,40,19.57,US,1687731033
39,barra,-11.0894,-43.1417,76.1,47,98,6.24,BR,1687731033
40,lorengau,-2.0226,147.2712,81.63,82,96,11.45,PG,1687731034
41,aykhal,66.0,111.5,58.57,54,95,12.64,RU,1687730827
42,kailua-kona,19.6406,-155.9956,84.16,75,40,10.36,US,1687731035
43,stanley,54.868,-1.6985,57.72,92,75,5.75,GB,1687731035
44,yellowknife,62.456,-114.3525,60.57,41,4,15.99,CA,1687731035
45,portland,45.5234,-122.6762,85.55,45,0,9.22,US,1687730507
46,coquimbo,-29.9533,-71.3436,60.53,88,0,6.91,CL,1687731036
47,alofi,-19.0595,-169.9187,75.06,72,14,12.41,NU,1687731037
48,waitangi,-43.9535,-176.5597,54.82,82,100,11.01,NZ,1687731037
49,ribeira grande,38.5167,-28.7,69.78,90,68,1.01,PT,1687731038
50,bredasdorp,-34.5322,20.0403,54.32,94,100,10.89,ZA,1687731038
51,mount pearl,47.5166,-52.7813,64.74,87,75,25.32,CA,1687730799
52,touros,-5.1989,-35.4608,76.6,83,28,12.35,BR,1687730840
53,xiahu,26.6106,119.9483,77.54,91,70,2.93,CN,1687731039
54,invercargill,-46.4,168.35,46.71,94,100,5.46,NZ,1687731040
55,taoudenni,22.6783,-3.9836,102.27,8,18,7.54,ML,1687731040
56,shimoda,34.6667,138.95,74.1,82,100,1.66,JP,1687731040
57,tiksi,71.6872,128.8694,43.48,72,60,7.83,RU,1687730854
58,olonkinbyen,70.9221,-8.7187,43.61,98,92,12.15,SJ,1687731041
59,umm kaddadah,13.6017,26.6876,93.24,22,27,4.85,SD,1687731041
60,enewetak,11.3474,162.3373,82.67,80,100,21.25,MH,1687731042
61,nemuro,43.3236,145.575,55.6,96,80,6.42,JP,1687731042
62,punta arenas,-53.15,-70.9167,33.91,100,100,12.66,CL,1687731043
63,zhalantun,48.0,122.7167,73.76,61,54,0.45,CN,1687731043
64,bonthe,7.5264,-12.505,77.34,88,99,5.08,SL,1687731043
65,tura,25.5198,90.2201,75.04,91,49,5.99,IN,1687731005
66,chibougamau,49.9168,-74.3659,71.22,30,100,5.75,CA,1687731044
67,portel,-1.9356,-50.8211,79.2,80,57,1.68,BR,1687731044
68,hamilton,39.1834,-84.5333,84.15,67,20,10.36,US,1687731045
69,utrik,11.2278,169.8474,82.76,77,57,17.81,MH,1687731045
70,yuzhno-kurilsk,44.0306,145.8556,58.06,88,71,6.15,RU,1687731046
71,beau vallon,-20.4189,57.6953,66.22,64,2,9.46,MU,1687731047
72,ghanzi,-21.5667,21.7833,55.94,36,0,4.52,BW,1687731047
73,palmer,42.1584,-72.3287,84.81,66,75,5.75,US,1687731047
74,kristiansund,63.1115,7.732,68.05,59,0,1.14,NO,1687730958
75,kapuskasing,49.4169,-82.4331,60.89,72,100,11.5,CA,1687731048
76,tralee,52.2704,-9.7026,54.48,87,7,10.87,IE,1687731048
77,egilsstadir,65.2653,-14.3948,53.51,62,40,14.97,IS,1687731049
78,badger,64.8,-147.5333,74.52,49,75,3.44,US,1687731050
79,lakatoro,-16.0999,167.4164,75.29,56,50,10.8,VU,1687731050
80,qaqortoq,60.7167,-46.0333,38.5,82,1,7.11,GL,1687731050
81,constitucion,-35.3333,-72.4167,57.47,98,98,8.19,CL,1687730757
82,okahao,-17.885,15.0667,62.85,27,0,6.02,NA,1687731051
83,bodden town,19.2833,-81.25,89.6,69,20,10.36,KY,1687731052
84,christchurch,-43.5333,172.6333,55.9,86,98,9.22,NZ,1687731052
85,kodiak,57.79,-152.4072,53.11,76,75,6.91,US,1687731052
86,lebu,-37.6167,-73.65,53.51,87,6,12.62,CL,1687731053
87,barth,54.3635,12.7249,69.06,81,27,7.87,DE,1687731053
88,turtas,58.9417,69.1325,44.8,81,98,4.94,RU,1687731054
89,tuba city,36.135,-111.2399,92.28,4,0,27.13,US,1687731054
90,ancud,-41.8697,-73.8203,49.68,82,46,20.67,CL,1687731054
91,miki,34.8,134.9833,74.8,82,100,4.16,JP,1687730955
92,mitsamiouli,-11.3847,43.2844,77.29,63,53,9.53,KM,1687731055
93,dwarka,22.2394,68.9678,82.24,82,92,16.64,IN,1687731056
94,igrim,63.1906,64.4162,43.3,72,80,2.46,RU,1687731056
95,manadhoo,5.7667,73.3833,80.89,76,100,11.27,MV,1687731057
96,papao,-17.75,-149.55,85.68,76,1,17.83,PF,1687731057
97,holualoa,19.6228,-155.9522,80.44,75,40,10.36,US,1687731057
98,bhimavaram,16.5333,81.5333,81.97,78,100,7.0,IN,1687731058
99,geraldton,-28.7667,114.6,45.01,93,94,5.75,AU,1687731058
100,lompoc,34.6391,-120.4579,76.69,67,5,18.01,US,1687730965
101,mahanoro,-19.9,48.8,63.99,85,68,6.11,MG,1687731059
102,fisterra,42.9049,-9.2629,66.74,89,29,13.67,ES,1687731060
103,mora,11.0461,14.1401,79.32,60,100,3.22,CM,1687731060
104,talnakh,69.4865,88.3972,52.21,64,14,4.54,RU,1687731060
105,port elizabeth,-33.918,25.5701,56.1,94,100,9.22,ZA,1687730781
106,sitka,57.0531,-135.33,55.29,82,100,11.5,US,1687731061
107,bethel,41.3712,-73.414,83.52,70,75,6.91,US,1687731062
108,okeho,8.0333,3.35,71.06,93,100,4.79,NG,1687731062
109,maxixe,-23.8597,35.3472,62.26,85,0,4.25,MZ,1687731063
110,hawaiian paradise park,19.5933,-154.9731,82.04,69,75,9.22,US,1687731063
111,pavlovsk,50.4578,40.1081,57.18,80,100,6.31,RU,1687731063
112,siwa oasis,29.2041,25.5195,84.63,24,0,11.77,EG,1687731064
113,bathsheba,13.2167,-59.5167,84.81,74,20,9.22,BB,1687731064
114,isafjordur,66.0755,-23.124,52.0,90,89,10.29,IS,1687731065
115,blackmans bay,-43.0167,147.3167,45.52,84,17,7.65,AU,1687731065
116,parras de la fuente,25.4167,-102.1833,93.65,13,0,25.84,MX,1687731065
117,kugesi,56.029,47.2925,55.06,71,0,6.71,RU,1687731066
118,vadso,70.0744,29.7487,49.08,100,100,10.36,NO,1687731066
119,kapa'a,22.0752,-159.319,84.52,63,40,19.57,US,1687731067
120,happy valley-goose bay,53.3168,-60.3315,53.89,65,95,2.98,CA,1687731067
121,palikir - national government center,6.9248,158.1611,83.25,79,100,6.91,FM,1687731067
122,yigo village,13.5361,144.8886,82.74,84,40,8.05,GU,1687731068
123,mandan,46.8267,-100.8896,78.78,47,0,12.66,US,1687731058
124,fortuna,40.5982,-124.1573,60.66,89,100,11.5,US,1687731069
125,kourou,5.1552,-52.6478,77.05,88,28,4.12,GF,1687731069
126,west richland,46.3043,-119.3614,93.87,25,0,5.75,US,1687731069
127,flying fish cove,-10.4217,105.6791,74.88,88,75,8.05,CX,1687731070
128,sabang,5.8933,95.3214,82.65,79,74,14.45,ID,1687731070
129,pokoynoye,44.8097,44.2517,72.27,72,14,3.65,RU,1687731071
130,maragogi,-9.0122,-35.2225,74.93,84,66,12.06,BR,1687731071
131,sao jose da coroa grande,-8.8978,-35.1478,75.2,84,62,12.59,BR,1687730881
132,vila franca do campo,37.7167,-25.4333,68.41,82,27,3.56,PT,1687731072
133,wailua homesteads,22.0669,-159.378,83.19,63,40,19.57,US,1687731072
134,haiku-pauwela,20.9219,-156.3051,86.02,35,20,21.85,US,1687731073
135,whitehorse,60.7161,-135.0538,69.03,40,90,18.99,CA,1687731073
136,mermoz boabab,14.7065,-17.4758,79.36,79,19,6.26,SN,1687731073
137,callao,-12.0667,-77.15,71.89,73,20,17.27,PE,1687731074
138,dawesville,30.9224,-84.0091,96.67,45,0,4.61,US,1687731074
139,manaure,11.7751,-72.4445,87.04,67,84,14.7,CO,1687731075
140,st. john's,47.5649,-52.7093,64.27,87,100,3.0,CA,1687731075
141,puerto baquerizo moreno,-0.9,-89.6,76.69,81,90,12.95,EC,1687731075
142,georgetown,5.4112,100.3354,80.53,74,20,2.3,MY,1687730905
143,portrush,55.1959,-6.6493,58.87,85,26,6.55,GB,1687731076
144,jayapura,-2.5333,140.7,76.39,87,72,3.2,ID,1687731076
145,port mathurin,-19.6833,63.4167,72.52,67,0,12.33,MU,1687731077
146,macgregor,49.9661,-98.7794,78.57,49,100,4.0,CA,1687731077
147,ilek,51.5271,53.3831,51.64,90,0,8.05,RU,1687731078
148,vorgashor,67.5833,63.95,49.1,76,56,6.17,RU,1687731078
149,laguna,38.421,-121.4238,85.32,45,0,12.66,US,1687731079
150,petropavlovsk-kamchatsky,53.0452,158.6483,62.78,72,0,4.47,RU,1687731080
151,cabo san lucas,22.8909,-109.9124,91.62,73,0,8.05,MX,1687731028
152,puerto carreno,6.189,-67.4859,84.33,76,84,4.34,CO,1687731080
153,kotido,2.9806,34.1331,67.14,86,79,6.69,UG,1687731081
154,barah,13.7,30.3667,85.44,50,13,13.89,SD,1687731081
155,amungan,15.3652,119.9582,79.3,76,100,4.07,PH,1687731082
156,ouidah,6.3631,2.0851,76.32,76,93,11.12,BJ,1687730833
157,castillos,-34.1667,-53.8333,54.0,94,70,5.84,UY,1687731082
158,yelizovo,53.1873,158.3805,64.11,72,0,4.47,RU,1687731083
159,magadan,59.5667,150.8,69.53,72,14,3.91,RU,1687731083
160,coahuayana de hidalgo,18.7,-103.6583,89.65,61,64,8.37,MX,1687731084
161,gunjur,13.2019,-16.7339,82.47,78,40,4.61,GM,1687731084
162,hithadhoo,-0.6,73.0833,82.09,75,100,8.72,MV,1687731084
163,nantucket,41.2835,-70.0995,73.45,94,81,11.25,US,1687730797
164,corner brook,48.9667,-57.9484,46.56,94,100,5.39,CA,1687730796
165,bamboo flat,11.7,92.7167,81.93,83,97,11.21,IN,1687731086
166,constantia,44.1833,28.65,70.7,88,85,12.73,RO,1687730813
167,galliano,29.4422,-90.2992,95.0,66,0,13.8,US,1687731086
168,balabac,7.9868,117.0645,80.51,83,100,8.57,PH,1687731087
169,east london,-33.0153,27.9116,61.52,90,100,20.27,ZA,1687731087
170,salalah,17.0151,54.0924,84.29,89,75,3.44,OM,1687731087
171,plettenberg bay,-34.0527,23.3716,55.99,90,100,9.66,ZA,1687731088
172,fale old settlement,-9.3852,-171.2468,83.16,75,35,11.99,TK,1687731088
173,la passe,45.5549,-0.8967,68.99,89,0,9.62,FR,1687731089
174,yanbu,24.0891,38.0637,90.1,40,1,15.3,SA,1687731089
175,sinabang,2.4803,96.3801,79.83,80,97,4.88,ID,1687731089
176,port lincoln,-34.7333,135.8667,52.07,72,15,8.25,AU,1687731090
177,smara,26.7384,-11.6719,77.31,64,0,18.12,EH,1687731090
178,porto novo,6.4965,2.6036,75.34,78,100,7.63,BJ,1687731091
179,susuman,62.7833,148.1667,75.06,48,11,3.44,RU,1687731091
180,riachao das neves,-11.7461,-44.91,72.45,42,60,2.91,BR,1687731091
181,papatowai,-46.5619,169.4708,49.62,88,100,3.44,NZ,1687731092
182,alakurtti,66.9672,30.3491,57.0,63,42,2.08,RU,1687731092
183,uturoa,-16.7333,-151.4333,81.77,69,74,17.81,PF,1687731093
184,aglona,56.1333,27.0167,54.52,92,93,3.22,LV,1687731093
185,arteche,12.2645,125.4048,76.64,90,96,2.82,PH,1687731093
186,chonchi,-42.6128,-73.8092,47.41,84,92,12.68,CL,1687731094
187,bandar abbas,27.1865,56.2808,91.38,75,20,9.22,IR,1687731094
188,new norfolk,-42.7826,147.0587,46.71,90,28,4.09,AU,1687731095
189,luderitz,-26.6481,15.1594,54.97,88,0,11.32,NA,1687731095
190,campoverde,-8.4753,-74.8058,89.29,64,59,2.04,PE,1687731095
191,idri,27.5,13.2667,85.44,17,0,7.31,LY,1687731096
192,toropets,56.4978,31.6353,58.12,86,100,4.03,RU,1687731096
193,longyearbyen,78.2186,15.6401,40.84,81,75,8.05,SJ,1687731096
194,simpang,-1.2667,104.0833,73.11,99,100,1.9,ID,1687731097
195,thompson,55.7435,-97.8558,60.96,48,75,6.91,CA,1687731097
196,salamanca,40.8333,-6.0,74.98,48,20,2.82,ES,1687731098
197,flin flon,54.7682,-101.865,63.45,56,97,9.89,CA,1687730963
198,poronaysk,49.2167,143.1167,57.9,90,100,1.39,RU,1687731098
199,anton lizardo,19.05,-95.9833,88.02,81,98,7.31,MX,1687731099
200,college,64.8569,-147.8028,74.59,45,75,3.44,US,1687731100
201,roma,43.2128,-75.4557,84.34,64,20,3.44,US,1687731100
202,maumere,-8.6199,122.2111,77.65,81,72,0.43,ID,1687731100
203,bollnas,61.3482,16.3946,55.35,72,9,2.53,SE,1687731101
204,mamu kanjan,30.8333,72.8,98.2,38,46,14.36,PK,1687731102
205,newman,37.3138,-121.0208,84.54,22,0,6.55,US,1687731102
206,suva,-18.1416,178.4415,74.68,73,20,0.0,FJ,1687731103
207,kassala,15.451,36.4,94.12,27,6,6.42,SD,1687731103
208,carrara,44.0629,10.0607,74.75,72,0,1.01,IT,1687731103
209,at taj,24.2049,23.2857,83.28,20,0,11.36,LY,1687731104
210,island harbour,50.724,-1.2758,63.19,78,10,1.99,GB,1687731104
211,sabha,27.0377,14.4283,87.19,17,0,8.63,LY,1687731105
212,baraki barak,33.9675,68.9486,76.03,40,52,2.1,AF,1687731105
213,walvis bay,-22.9575,14.5053,57.09,92,33,1.97,NA,1687730963
214,rio de janeiro,-22.9028,-43.2075,75.16,64,0,9.22,BR,1687731005
215,oyem,1.5995,11.5793,66.0,97,99,2.48,GA,1687731106
216,novyy urengoy,66.0833,76.6333,43.2,88,46,3.22,RU,1687731105
217,boali,4.8005,18.1275,70.57,97,99,2.13,CF,1687731107
218,karungdong,5.8844,121.263,79.63,81,100,1.74,PH,1687731108
219,naliya,23.2667,68.8333,82.87,78,100,11.97,IN,1687731108
220,fort bragg,35.139,-79.006,91.81,53,6,1.99,US,1687731108
221,pisco,-13.7,-76.2167,69.85,73,0,14.97,PE,1687731109
222,ust-nera,64.5667,143.2,82.18,33,74,3.04,RU,1687731109
223,ouani,-12.1322,44.4258,76.5,72,25,12.48,KM,1687731109
224,kill devil hills,36.0307,-75.676,80.98,78,0,14.97,US,1687731110
225,colonia,50.9333,6.95,78.82,53,0,5.75,DE,1687730844
226,afaahiti,-17.75,-149.2833,84.07,79,9,17.07,PF,1687731111
227,primero de mayo,-32.2552,-58.4228,59.56,73,11,6.64,AR,1687731111
228,isangel,-19.55,169.2667,73.24,64,79,11.74,VU,1687731112
229,maues,-3.3836,-57.7186,83.08,62,97,2.64,BR,1687731112
230,mineiros,-17.5694,-52.5511,68.36,42,0,2.64,BR,1687731113
231,dhidhdhoo,6.8833,73.1,81.3,80,100,14.67,MV,1687731113
232,atlantic,39.4668,-74.6663,81.05,72,0,10.36,US,1687731113
233,hermanus,-34.4187,19.2345,53.8,89,99,14.88,ZA,1687731114
234,okhotsk,59.3833,143.3,58.53,71,9,3.62,RU,1687731114
235,misratah,32.3754,15.0925,74.77,79,0,7.31,LY,1687731115
236,igreja,15.0333,-24.3333,73.42,79,14,15.5,CV,1687731115
237,ban talat yai,7.8848,98.4001,88.02,99,58,11.54,TH,1687731115
238,mizan teferi,6.9833,35.5833,59.5,97,56,1.77,ET,1687731116
239,kerikeri,-35.2268,173.9474,59.92,82,56,0.51,NZ,1687731116
240,viota,4.4371,-74.5216,82.54,72,58,1.1,CO,1687731117
241,abalak,58.1286,68.5944,49.05,74,100,4.9,RU,1687731117
242,katsuren-haebaru,26.3369,127.8719,81.37,91,75,4.61,JP,1687731117
243,tazacorte,28.629,-17.9293,72.57,92,40,16.11,ES,1687731118
244,karratha,-20.7377,116.8463,63.55,56,69,6.93,AU,1687731118
245,kralendijk,12.15,-68.2667,84.18,79,20,18.41,BQ,1687731119
246,taltal,-25.4,-70.4833,63.88,79,23,3.56,CL,1687731020
247,weno,7.4515,151.8468,85.95,79,100,5.75,FM,1687731119
248,brugg,47.481,8.2087,72.09,80,0,0.16,CH,1687731120
249,camarinas,43.1311,-9.1817,66.92,92,47,11.61,ES,1687731120
250,nuuk,64.1835,-51.7216,41.61,81,10,12.66,GL,1687731121
251,letlhakane,-21.4167,25.5833,55.96,29,0,9.26,BW,1687731121
252,hastings,50.8552,0.5729,66.97,40,6,15.21,GB,1687731121
253,xunchang,28.4543,104.715,71.4,86,0,2.28,CN,1687731122
254,piacabucu,-10.4056,-36.4344,74.8,82,53,9.86,BR,1687731122
255,spring creek,40.7266,-115.5859,81.3,13,97,7.27,US,1687731123
256,chui,-33.6971,-53.4616,55.69,94,63,5.57,UY,1687731123
257,nikolayevsk-on-amure,53.1406,140.73,61.56,96,98,2.71,RU,1687731123
258,vagator,15.5977,73.745,80.82,82,100,13.11,IN,1687730955
259,ipameri,-17.7219,-48.1597,65.14,48,100,5.48,BR,1687731124
260,san patricio,28.017,-97.5169,99.32,49,0,19.39,US,1687731025
261,iwanai,42.9744,140.5089,69.53,84,21,1.5,JP,1687731125
262,montepuez,-13.1256,38.9997,59.85,73,1,7.02,MZ,1687731126
263,brookings,44.3114,-96.7984,72.18,75,100,17.27,US,1687731126
264,kiama,-34.6833,150.8667,57.58,55,0,28.01,AU,1687731127
265,palangkaraya,-2.2,113.8333,72.46,96,36,1.83,ID,1687731127
266,saudarkrokur,65.7461,-19.6394,49.37,71,77,27.13,IS,1687731127
267,idfu,24.9803,32.8747,89.49,15,0,12.53,EG,1687731128
268,klyuchi,52.2667,79.1667,53.78,61,69,6.53,RU,1687731128
269,pizzo,38.7384,16.1658,74.34,88,75,3.44,IT,1687731129
270,caala,-12.8525,15.5606,53.6,38,1,0.47,AO,1687731129
271,pointe-noire,-4.7761,11.8635,72.36,90,96,5.97,CG,1687731130
272,qianzhou,28.3167,109.7167,70.29,92,0,1.01,CN,1687731130
273,pitimbu,-7.4706,-34.8086,73.99,85,68,15.3,BR,1687731130
274,polyarnyy,69.1989,33.4478,49.98,91,86,2.84,RU,1687731131
275,harrison,30.4091,-89.0436,95.02,61,0,8.05,US,1687731131
276,adelia maria,-33.6315,-64.021,55.63,77,82,5.01,AR,1687731132
277,nova vicosa,-17.8919,-39.3719,72.72,82,100,5.7,BR,1687730848
278,priyutnoye,46.1011,43.5072,70.99,67,8,7.56,RU,1687731132
279,wewak,-3.5534,143.6268,79.03,86,80,4.38,PG,1687731133
280,palmares do sul,-30.2578,-50.5097,66.97,89,57,3.96,BR,1687731133
281,klaksvik,62.2266,-6.589,52.72,91,100,9.98,FO,1687731134
282,latrobe,40.3212,-79.3795,86.04,61,75,11.5,US,1687731134
283,igarka,67.4667,86.5833,49.15,76,97,6.91,RU,1687731135
284,saint-joseph,-21.3667,55.6167,61.18,77,51,5.75,RE,1687731135
285,amboasary,-25.0333,46.3833,57.92,78,2,1.92,MG,1687731135
286,markovo,57.3206,107.0881,54.82,94,67,2.44,RU,1687731136
287,les cayes,18.2,-73.75,84.06,69,19,7.92,HT,1687731136
288,levuka,50.1834,-105.4011,82.11,24,59,1.48,CA,1687731136
289,el calafate,-50.3408,-72.2768,32.2,86,99,2.44,AR,1687731033
290,pelabuhanratu,-6.9875,106.5514,73.98,89,36,5.37,ID,1687731137
291,funza,4.7164,-74.212,59.94,82,90,1.28,CO,1687731138
292,san antonio de pale,-1.4014,5.6325,75.27,79,36,3.91,GQ,1687731138
293,tobelo,1.7284,128.0095,78.71,83,48,3.04,ID,1687731138
294,pemba,-12.974,40.5178,68.7,88,20,8.05,MZ,1687731139
295,ngudu,-2.9667,33.3333,69.33,63,76,4.03,TZ,1687731140
296,fort stockton,30.894,-102.8793,109.45,8,0,0.0,US,1687731140
297,shobara,34.85,133.0167,68.83,99,100,2.39,JP,1687731140
298,tamiahua,21.2667,-97.45,88.59,60,3,13.96,MX,1687731141
299,korla,41.7597,86.1469,76.33,23,6,9.53,CN,1687731142
300,thinadhoo,0.5333,72.9333,82.76,74,100,9.57,MV,1687731142
301,todaraisingh,26.0167,75.4833,83.19,75,100,2.04,IN,1687731142
302,escanaba,45.7453,-87.0646,71.56,83,75,5.75,US,1687730381
303,nova sintra,14.8667,-24.7167,69.31,80,0,19.93,CV,1687731143
304,kudahuvadhoo,2.6708,72.8944,80.8,79,100,9.26,MV,1687731144
305,ulladulla,-35.35,150.4667,54.59,55,0,17.81,AU,1687731144
306,hanceville,34.0607,-86.7675,90.16,63,47,5.39,US,1687731144
307,marabba,12.35,32.1833,85.46,57,55,15.39,SD,1687731145
308,comodoro rivadavia,-45.8667,-67.5,44.71,70,92,6.24,AR,1687731046
309,sultanah,24.4926,39.5857,97.25,8,0,8.05,SA,1687731146
310,udachny,66.4167,112.4,57.45,58,76,11.54,RU,1687731146
311,la ronge,55.1001,-105.2842,55.62,66,75,6.91,CA,1687731146
312,basavakalyan,17.8667,76.95,76.57,74,100,13.33,IN,1687731147
313,truckee,39.328,-120.1833,72.81,45,40,9.22,US,1687731147
314,bogale,16.2833,95.4,77.41,91,100,4.41,MM,1687731148
315,ciudad valles,21.9833,-99.0167,104.11,25,16,12.68,MX,1687731114
316,illizi,26.4833,8.4667,89.4,13,7,9.22,DZ,1687731148
317,santa sylvina,-27.8326,-61.1375,77.47,59,0,3.51,AR,1687731149
318,nahiyat ash shinafiyah,31.5874,44.6602,95.41,15,0,18.95,IQ,1687731149
319,padangsidempuan,1.3667,99.2667,70.95,99,100,1.57,ID,1687731150
320,bouar,5.934,15.596,65.89,97,100,2.37,CF,1687731150
321,mejit,10.2753,170.8646,82.6,78,98,18.79,MH,1687731150
322,lighthouse point,26.2756,-80.0873,83.01,77,0,11.5,US,1687730924
323,urzhar,47.093,81.6294,55.78,47,100,3.94,KZ,1687731151
324,pangody,65.85,74.4859,43.61,88,54,5.39,RU,1687731152
325,rongelap,11.1635,166.8941,82.42,80,15,19.75,MH,1687731152
326,queenstown,-31.8976,26.8753,49.91,87,90,3.69,ZA,1687731152
327,burang,30.25,81.1667,45.39,89,57,2.82,CN,1687731153
328,louisville,38.2542,-85.7594,87.69,68,40,9.22,US,1687731133
329,taupo,-38.6833,176.0833,50.23,74,4,1.41,NZ,1687731153
330,thunder bay,48.4001,-89.3168,64.38,88,100,13.8,CA,1687731111
331,ataq,14.5377,46.8319,84.63,48,49,5.06,YE,1687731154
332,craig,40.5153,-107.5464,84.15,10,0,10.36,US,1687731155
333,faya-largeau,17.9257,19.1043,93.33,15,2,9.64,TD,1687731155
334,saint-louis,16.3333,-15.0,81.45,53,24,17.09,SN,1687731155
335,myski,53.709,87.8014,44.87,85,60,2.26,RU,1687731156
336,addis ababa,9.025,38.7469,59.88,82,75,4.61,ET,1687731155
337,canutama,-6.5339,-64.3831,79.97,80,100,2.73,BR,1687731156
338,lazaro cardenas,17.9583,-102.2,87.69,63,51,10.18,MX,1687731157
339,tolanaro,-25.0319,46.9987,59.74,76,37,3.67,MG,1687731157
340,nar'yan-mar,67.6713,53.087,46.04,72,82,8.93,RU,1687731158
341,lashkar gah,31.5938,64.3716,92.08,14,13,4.72,AF,1687731158
342,nouadhibou,20.931,-17.0347,69.78,83,1,18.41,MR,1687731159
343,kingston,17.997,-76.7936,89.24,62,20,23.02,JM,1687731159
344,ranchi,23.35,85.3333,75.56,90,100,6.82,IN,1687731160
345,arraial do cabo,-22.9661,-42.0278,71.46,88,0,3.44,BR,1687730964
346,mossel bay,-34.1831,22.146,55.33,88,100,15.21,ZA,1687731161
347,saint-philippe,-21.3585,55.7679,62.19,77,22,7.9,RE,1687731161
348,zalari,53.5584,102.5065,50.4,97,100,13.85,RU,1687731162
349,santo antonio do ica,-3.1022,-67.9397,79.02,89,97,3.38,BR,1687731162
350,ayutla de los libres,16.9,-99.2167,80.94,79,78,6.96,MX,1687731162
351,lewisburg,35.4492,-86.7889,92.95,67,20,9.22,US,1687731163
352,iskateley,67.6803,53.1512,45.72,72,81,8.84,RU,1687731163
353,nicoya,10.1483,-85.452,85.42,69,100,1.7,CR,1687731164
354,grand falls-windsor,48.9332,-55.6649,44.51,92,100,4.0,CA,1687731164
355,nguigmi,14.2495,13.1092,87.51,49,83,5.23,NE,1687731164
356,khanty-mansiysk,61.0042,69.0019,42.91,100,97,0.0,RU,1687731165
357,acajutla,13.5928,-89.8275,85.41,70,94,5.17,SV,1687730894
358,lashio,22.9333,97.75,67.84,100,44,0.98,MM,1687731165
359,ayancik,41.9447,34.5861,72.48,71,0,2.75,TR,1687731166
360,fray luis beltran,-39.3167,-65.7667,55.33,62,79,14.05,AR,1687731166
361,juneau,58.3019,-134.4197,59.22,95,100,3.44,US,1687731167
362,vilyuysk,63.7553,121.6247,67.53,54,100,5.06,RU,1687731167
363,caldwell,43.6629,-116.6874,84.07,33,0,6.91,US,1687731167
364,manokwari,-0.8667,134.0833,79.88,76,91,6.98,ID,1687731168
365,parham,17.0968,-61.7705,85.03,68,69,1.01,AG,1687731168
366,al jawf,29.5,38.75,85.87,15,0,8.95,SA,1687731169
367,shubarshi,48.5872,57.1869,56.5,82,25,17.0,KZ,1687731169
368,nasiriyah,31.0521,46.261,95.09,15,0,15.68,IQ,1687731169
369,suntar,62.1444,117.6319,64.53,92,100,4.21,RU,1687731170
370,susanville,40.4163,-120.653,78.64,21,20,10.0,US,1687730944
371,mount isa,-20.7333,139.5,53.37,71,89,0.0,AU,1687731171
372,kuhdasht,33.535,47.6061,77.34,21,0,4.68,IR,1687731171
373,redencao,-4.2258,-38.7306,75.58,84,63,2.66,BR,1687731172
374,bikenibeu village,1.3673,173.1241,84.16,79,75,5.75,KI,1687731172
375,ocean city,39.2776,-74.5746,83.01,78,12,5.01,US,1687730879
376,labuan,5.2767,115.2417,81.41,79,100,8.46,MY,1687731173
377,puerto leguizamo,-0.1934,-74.7819,79.39,86,100,1.57,CO,1687731174
378,puerto colombia,10.9878,-74.9547,82.6,80,82,7.52,CO,1687731059
379,bhimunipatnam,17.8833,83.4333,82.15,77,100,10.0,IN,1687731174
380,visby,57.6409,18.296,59.22,72,0,3.44,SE,1687731175
381,anloga,5.7947,0.8973,76.8,78,33,11.23,GH,1687731175
382,uliastay,47.7417,96.8444,48.7,50,97,2.86,MN,1687731175
383,barra de santo antonio,-9.4047,-35.5072,76.28,80,58,10.8,BR,1687731176
384,mont-dore,-22.2833,166.5833,69.01,99,34,4.09,NC,1687731176
385,muisne,0.6,-80.0333,79.11,80,92,12.82,EC,1687731177
386,benguela,-12.5763,13.4055,67.68,84,63,4.92,AO,1687731177
387,tapes,-30.6733,-51.3958,65.3,93,57,4.0,BR,1687731177
388,petauke,-14.2426,31.3253,56.53,52,0,8.34,ZM,1687731178
389,mutuali,-14.8706,37.0044,55.51,78,0,3.67,MZ,1687731178
390,sinop,41.7711,34.8709,65.55,65,0,5.28,TR,1687731179
391,tucuma,-0.1833,-50.05,76.6,91,38,4.27,BR,1687731179
392,yangambi,0.8102,24.4336,68.99,99,63,0.67,CD,1687731179
393,guerrero negro,27.9769,-114.0611,71.55,58,4,22.93,MX,1687731180
394,nagqu,31.5,92.0,38.64,42,2,3.69,CN,1687731180
395,taco pozo,-25.6167,-63.2833,74.82,62,0,2.75,AR,1687731181
396,muzo,5.5353,-74.1078,75.7,94,87,0.34,CO,1687731181
397,huarmey,-10.0681,-78.1522,72.81,74,6,9.75,PE,1687731181
398,ormond-by-the-sea,29.3491,-81.0665,90.09,60,0,9.22,US,1687731182
399,pandan,14.0453,124.1694,78.94,81,95,1.72,PH,1687731182
400,huai yot,7.7893,99.6348,73.76,96,83,1.81,TH,1687731183
401,chul'man,56.8479,124.9104,63.27,71,78,2.46,RU,1687731183
402,cadillac,44.2519,-85.4012,67.91,83,100,18.41,US,1687731055
403,bizerte,37.2744,9.8739,73.4,83,20,3.44,TN,1687731184
404,kidal,18.4411,1.4078,90.48,31,99,4.14,ML,1687731184
405,soroca,48.1558,28.2975,61.57,91,86,4.54,MD,1687731185
406,edson,53.5835,-116.4356,69.94,52,40,6.91,CA,1687731185
407,serenje,-13.2325,30.2352,49.93,71,0,4.9,ZM,1687731185
408,powell river,49.8496,-124.5361,75.47,56,20,6.91,CA,1687731186
409,aketi,2.7388,23.7833,68.34,99,85,0.22,CD,1687731186
410,tymovskoye,50.8456,142.655,60.89,95,100,6.02,RU,1687731187
411,barreirinhas,-2.7469,-42.8264,79.25,78,18,9.06,BR,1687731187
412,dudinka,69.4058,86.1778,52.63,67,54,3.8,RU,1687731187
413,kabo,7.6994,18.629,70.75,95,67,1.43,CF,1687731188
414,westport,41.1415,-73.3579,84.27,73,0,5.75,US,1687731024
415,aquidauana,-20.4711,-55.7872,74.59,57,0,3.33,BR,1687731189
416,kabalo,-6.05,26.9167,74.73,41,21,1.23,CD,1687731189
417,ar rahad,12.7167,30.65,81.1,60,76,12.39,SD,1687731190
418,boguchany,58.3814,97.4531,54.09,85,100,3.58,RU,1687731190
419,ituverava,-20.3394,-47.7806,65.73,49,34,3.02,BR,1687731190
420,khanpur,28.6453,70.6567,93.74,47,32,20.58,PK,1687731191
421,chust,41.0094,71.2287,65.59,77,90,5.95,UZ,1687731191
422,isla del bosque,22.7333,-105.85,88.03,59,2,12.82,MX,1687731192
423,likasi,-10.9814,26.7333,54.57,57,0,2.91,CD,1687731192
424,serhetabat,35.2799,62.3438,72.93,26,0,5.73,TM,1687731192
425,san luis de la loma,17.2706,-100.8939,80.26,87,93,7.87,MX,1687731193
426,oyonnax,46.2592,5.6573,68.32,69,1,2.19,FR,1687731193
427,rawson,-43.3002,-65.1023,49.23,79,100,24.0,AR,1687731194
428,qashyr,53.0675,76.1036,56.32,57,89,2.55,KZ,1687731195
429,kruisfontein,-34.0033,24.7314,53.89,97,99,7.16,ZA,1687731195
430,ghadamis,30.1337,9.5007,91.96,14,0,3.33,LY,1687731196
431,harper,4.375,-7.7169,76.75,82,100,12.53,LR,1687731196
432,xining,36.6167,101.7667,49.01,83,5,3.22,CN,1687731196
433,imperia,43.9667,7.7833,70.95,75,2,4.97,IT,1687731197
434,gorontalo,0.5412,123.0595,74.43,93,90,2.21,ID,1687731197
435,kuta,-8.7233,115.1723,75.15,94,20,5.99,ID,1687731198
436,mar del plata,-38.0023,-57.5575,57.09,72,0,6.91,AR,1687731198
437,howard springs,-12.497,131.047,76.91,89,85,5.68,AU,1687731198
438,durban,-29.8579,31.0292,65.32,83,100,2.82,ZA,1687731199
439,jati,24.3539,68.2671,85.1,71,100,12.86,PK,1687731199
440,port hedland,-20.3167,118.5667,62.65,72,54,4.61,AU,1687731200
441,samokov,42.3333,23.55,61.3,95,67,2.84,BG,1687731200
442,america dourada,-11.4553,-41.4361,68.43,53,100,5.93,BR,1687731200
443,ryotsu-minato,38.0833,138.4333,70.14,78,93,3.36,JP,1687731201
444,uige,-7.6087,15.0613,64.51,74,56,2.75,AO,1687731201
445,sergach,55.5308,45.4661,54.79,85,90,2.24,RU,1687731020
446,sao joao da barra,-21.6403,-41.0511,71.69,85,89,9.84,BR,1687731202
447,tayu,-6.5397,111.0518,74.61,87,13,7.05,ID,1687731203
448,vila velha,-20.3297,-40.2925,73.94,89,0,6.91,BR,1687731203
449,port blair,11.6667,92.75,82.44,83,40,2.3,IN,1687731203
450,thulamahashi,-24.7246,31.1994,61.3,48,0,4.79,ZA,1687731204
451,tamandare,-8.7597,-35.1047,74.84,86,61,11.59,BR,1687731204
452,abepura,-2.6333,140.5833,76.01,83,20,2.3,ID,1687731205
453,berdigestyakh,62.0989,126.6992,72.21,65,29,1.81,RU,1687731205
454,hobyo,5.3505,48.5268,77.83,82,100,26.08,SO,1687731206
455,andergrove,-21.0833,149.1833,67.64,87,32,3.24,AU,1687731206
456,conception bay south,47.4999,-52.9981,64.04,89,100,14.85,CA,1687731043
457,kashmor,28.4333,69.5833,92.48,51,32,16.64,PK,1687731207
458,dongola,19.1667,30.4833,89.73,15,1,11.65,SD,1687731207
459,mahina,-17.5065,-149.489,85.77,62,20,18.41,PF,1687730925
460,ambah,26.7075,78.2261,84.74,73,100,6.2,IN,1687731208
461,bay roberts,47.5999,-53.2648,64.65,98,100,13.44,CA,1687731208
462,camana,-16.6228,-72.7111,65.79,75,31,1.61,PE,1687731209
463,chachersk,52.9164,30.9179,58.91,97,100,4.83,BY,1687731209
464,saldanha,-33.0117,17.9442,51.85,85,0,16.82,ZA,1687731210
465,arno,60.1167,18.6333,58.78,85,0,1.3,SE,1687731210
466,bandarbeyla,9.4942,50.8122,75.34,85,82,33.29,SO,1687731210
467,belozersk,60.0326,37.7957,55.83,71,21,6.02,RU,1687731211
468,prince rupert,54.3161,-130.3201,65.89,88,0,12.66,CA,1687731212
469,hasaki,35.7333,140.8333,77.22,86,72,4.03,JP,1687731212
470,buala,-8.145,159.5921,81.43,70,59,14.72,SB,1687731213
471,hami,42.8,93.45,76.19,18,16,7.09,CN,1687731213
472,borogontsy,62.6683,131.1683,75.63,59,25,1.41,RU,1687731213
473,turpan,42.9333,89.1667,86.95,19,43,3.76,CN,1687731214
474,nowogard,53.6744,15.1163,65.39,88,0,2.3,PL,1687731214
475,parshadepur,26.0833,81.5167,91.96,50,100,12.19,IN,1687731215
476,labasa,-16.4167,179.3833,77.02,63,21,5.44,FJ,1687731215
477,antsiranana,-12.2787,49.2917,71.53,71,87,13.42,MG,1687731215
478,port augusta,-32.5,137.7667,45.64,72,79,5.3,AU,1687731216
479,east ballina,-28.8667,153.5833,60.8,34,1,13.82,AU,1687731216
480,erdenet,49.0333,104.0833,51.93,87,100,3.11,MN,1687731217
481,pimenta bueno,-11.6725,-61.1936,79.83,57,20,3.89,BR,1687730985
482,sisimiut,66.9395,-53.6735,43.2,65,9,9.73,GL,1687731217
483,atchison,39.563,-95.1216,88.32,40,0,5.99,US,1687731218
484,tocopilla,-22.092,-70.1979,64.63,76,36,0.78,CL,1687731218
485,vanimo,-2.6741,141.3028,78.42,87,70,3.24,PG,1687731219
486,meulaboh,4.1363,96.1285,76.14,87,97,4.92,ID,1687731219
487,borodulikha,50.7184,80.9295,50.23,67,23,1.77,KZ,1687731219
488,bitkine,11.9801,18.2138,80.42,64,8,6.69,TD,1687731220
489,lagoa,39.05,-27.9833,69.58,77,96,2.55,PT,1687731220
490,pila,53.1515,16.7378,61.02,68,52,4.79,PL,1687731220
491,okha,53.5739,142.9478,54.79,98,100,11.5,RU,1687731221
492,altar,30.7,-111.8167,107.74,8,0,14.36,MX,1687731221
493,narvik,68.4384,17.4272,56.37,84,92,2.89,NO,1687731222
494,enshi,30.3,109.4833,67.24,95,0,0.92,CN,1687731222
495,dryden,49.7833,-92.7503,68.29,60,100,10.36,CA,1687731222
496,rio grande,-32.035,-52.0986,60.91,94,100,7.14,BR,1687731223
497,tupiza,-21.45,-65.7167,59.27,11,0,3.74,BO,1687731223
498,nizhnyaya salda,58.0776,60.7202,45.41,95,100,5.41,RU,1687731224
499,sturgis,41.7992,-85.4192,76.48,64,0,10.36,US,1687731092
500,labrador city,52.9463,-66.9114,64.31,27,20,8.66,CA,1687731009
501,vernon,50.2581,-119.2691,84.76,35,11,5.75,CA,1687731225
502,phalaborwa,-23.943,31.1411,61.88,49,0,3.44,ZA,1687731225
503,tatarsk,55.219,75.9828,48.67,93,74,4.12,RU,1687731226
504,tekkali,18.6167,84.2333,79.39,85,100,6.55,IN,1687731226
505,pontian kechil,1.4866,103.3896,77.0,94,100,5.08,MY,1687731226
506,crystal city,28.6775,-99.8281,111.54,16,3,12.95,US,1687731227
507,carutapera,-1.195,-46.02,77.77,85,52,6.85,BR,1687730961
508,terrace,54.5163,-128.6035,76.21,42,37,1.63,CA,1687731008
509,lushun,38.8,121.2667,70.02,94,100,12.19,CN,1687731228
510,dazuocun,24.8862,118.9643,80.01,81,100,5.1,CN,1687731228
511,umba,66.6871,34.3429,54.81,54,81,4.23,RU,1687731229
512,xam nua,20.4197,104.0439,67.39,99,99,0.81,LA,1687731229
513,vetluzhskiy,58.3902,45.4654,49.24,87,80,3.83,RU,1687731230
514,darwin,-12.4611,130.8418,78.78,91,75,6.91,AU,1687731230
515,san pedro pochutla,15.7333,-96.4667,87.51,75,100,3.98,MX,1687731230
516,tsiombe,-25.3,45.4833,58.28,73,1,1.68,MG,1687731231
517,dongning,44.0622,131.1207,70.66,85,12,1.79,CN,1687731231
518,concordia,-31.393,-58.0209,68.79,86,94,3.0,AR,1687731053
519,mandalgovi,45.7625,106.2708,56.62,72,68,16.02,MN,1687730952
520,mugia,43.1041,-9.2179,66.9,91,45,12.53,ES,1687731232
521,loushanguan,28.1375,106.82,67.48,92,52,3.09,CN,1687731233
522,tromso,69.6496,18.957,51.82,76,75,3.44,NO,1687731233
523,iyo,33.7514,132.7014,75.06,94,75,4.61,JP,1687731234
524,labytnangi,66.6572,66.4183,46.4,67,32,3.02,RU,1687731234
525,beloyarskiy,63.7119,66.6722,43.07,75,94,1.97,RU,1687731235
526,sumenep,-7.0167,113.8667,76.01,83,57,3.78,ID,1687731235
527,tual,-5.6667,132.75,80.73,82,87,9.62,ID,1687731235
528,nizao,18.25,-70.2,89.67,70,19,11.74,DO,1687731236
529,marysville,48.0518,-122.1771,81.81,54,0,6.91,US,1687731172
530,road town,18.4167,-64.6167,84.29,70,20,6.91,VG,1687731237
531,nago,26.5881,127.9761,81.45,90,87,8.97,JP,1687731237
532,jinchang,38.4953,102.1739,64.02,54,50,6.55,CN,1687731238
533,jiamusi,46.8333,130.35,79.43,51,28,13.11,CN,1687731238
534,merizo village,13.2658,144.6691,83.98,91,100,12.53,GU,1687731238
535,juegang,32.3174,121.1855,78.91,94,100,8.03,CN,1687731239
536,padampur,29.6833,73.6167,96.46,43,90,13.58,IN,1687731239
537,garoowe,8.4054,48.4845,76.32,65,100,29.86,SO,1687731240
538,broome,42.2506,-75.833,82.85,60,100,9.22,US,1687731240
539,ponte de sor,39.2496,-8.0101,71.67,56,4,11.03,PT,1687731241
540,basse-terre,16.1667,-61.6667,81.64,70,20,9.22,GP,1687731241
541,papar,5.7333,115.9333,77.0,82,100,3.98,MY,1687731242
542,mweka,-4.85,21.5667,69.51,79,30,1.1,CD,1687731242
543,awjilah,29.1081,21.2869,81.7,40,0,9.95,LY,1687731242
544,selfoss,63.9331,-20.9971,47.05,93,100,9.06,IS,1687731243
545,toliara,-23.35,43.6667,61.05,68,0,11.77,MG,1687731243
546,ola,59.5833,151.2833,70.14,75,24,4.23,RU,1687731244
547,zeribet el oued,34.6828,6.5111,94.46,22,0,13.65,DZ,1687731244
548,muroto-misakicho,33.2833,134.15,71.87,88,100,4.5,JP,1687731245
549,shizunai-furukawacho,42.3339,142.3669,63.59,83,10,3.33,JP,1687731245
550,hotan,37.0997,79.9269,77.85,19,0,8.9,CN,1687731246
551,punta alta,-38.8759,-62.0736,58.06,60,100,10.29,AR,1687731217
552,oranjemund,-28.55,16.4333,55.27,93,48,5.21,NA,1687731246
553,machico,32.7,-16.7667,77.63,57,40,24.16,PT,1687731247
554,nabire,-3.3667,135.4833,75.79,93,100,2.68,ID,1687731247
555,ellsworth,44.5434,-68.4195,78.94,84,20,8.05,US,1687731148
556,atafu village,-8.5421,-172.5159,83.98,71,8,14.58,TK,1687731248
557,homer,59.6425,-151.5483,55.29,62,100,18.41,US,1687731241
558,namibe,-15.1961,12.1522,61.65,85,73,8.61,AO,1687731249
559,fada,9.5667,8.3,68.63,96,95,2.26,NG,1687731249
560,baiquan,47.5833,126.0833,77.56,50,51,11.81,CN,1687731249
561,elk city,35.412,-99.4043,89.58,51,0,12.66,US,1687731250
562,midvagur,62.0511,-7.1939,52.63,100,75,10.36,FO,1687731250
563,aiquile,-18.2041,-65.1807,61.2,48,0,3.53,BO,1687731251
564,la maddalena,41.2142,9.4083,77.05,74,4,14.34,IT,1687731251
565,kununurra,-15.7667,128.7333,69.78,94,100,0.0,AU,1687731238
566,kalaleh,37.3807,55.4916,70.25,55,0,2.3,IR,1687731252
567,hadibu,12.65,54.0333,79.0,82,78,24.87,YE,1687731252
568,prineville,44.2999,-120.8345,83.1,22,20,12.66,US,1687731253
569,zeya,53.75,127.2667,64.27,68,85,0.72,RU,1687731253
570,las juntas,19.4167,-104.7,83.73,58,68,8.88,MX,1687731253
571,nema,57.5067,50.5011,47.26,82,74,6.46,RU,1687731254
572,santiago de cao,-7.9589,-79.2392,75.33,73,100,4.61,PE,1687731254
573,kirakira,-10.4544,161.9205,79.12,70,69,12.33,SB,1687731255
574,nkhata bay,-11.6066,34.2907,65.01,73,3,5.46,MW,1687731255
575,patti,31.2808,74.8572,80.67,67,46,10.56,IN,1687731256
576,saint-pierre,-21.3393,55.4781,62.28,82,75,5.75,RE,1687731257
